{
  "type": "FeatureCollection",
  "features": [
    {
      "type": "Feature",
      "geometry": {
        "type": "Point",
        "coordinates": [
          4.986594,
          44.526948,
          0
        ]
      },
      "properties": {
        "name": "La Vieille Mule",
        "addressLocality": "Le Poët-Laval",
        "postalCode": "26160",
        "streetAddress": "25A Chemin des ramières - quartier Labry",
        "website": "https://www.lavieillemule.com/"
      }
    },
    {
      "type": "Feature",
      "geometry": {
        "type": "Point",
        "coordinates": [
          5.018394,
          44.7268693,
          0
        ]
      },
      "properties": {
        "name": "Les Gens Sérieux",
        "addressLocality": "Crest",
        "postalCode": "26400",
        "streetAddress": "27 Quai André Reynier",
        "website": "https://fr-fr.facebook.com/LesGensSerieux/"
      }
    },
    {
      "type": "Feature",
      "geometry": {
        "type": "Point",
        "coordinates": [
          5.0615596,
          44.6452522,
          0
        ]
      },
      "properties": {
        "name": "Markus",
        "addressLocality": "Saou",
        "postalCode": "26400",
        "streetAddress": "Route de Bourdeaux",
        "website": "https://www.markusbiere.com"
      }
    },
    {
      "type": "Feature",
      "geometry": {
        "type": "Point",
        "coordinates": [
          5.3531602,
          44.7626049,
          0
        ]
      },
      "properties": {
        "name": "La Manivelle",
        "addressLocality": "Die",
        "postalCode": "26150",
        "streetAddress": "5 Impasse de la Clairette",
        "website": "https://www.lamanivelle.beer"
      }
    },
    {
      "type": "Feature",
      "geometry": {
        "type": "Point",
        "coordinates": [
          5.1411754,
          44.7887105,
          0
        ]
      },
      "properties": {
        "name": "Les Trois Becs",
        "addressLocality": "Gigors et Lozeron",
        "postalCode": "26400",
        "streetAddress": "1001A route de Lozeron",
        "website": "https://www.brasseriedestroisbecs.fr"
      }
    },
    {
      "type": "Feature",
      "geometry": {
        "type": "Point",
        "coordinates": [
          5.0078867,
          44.899484,
          0
        ]
      },
      "properties": {
        "name": "La Pleine Lune",
        "addressLocality": "Chabeuil",
        "postalCode": "26120",
        "website": "https://www.brasserie-pleinelune.fr",
        "streetAddress": "10 Rue Gustave Eiffel, Z.A. la Grue"
      }
    },
    {
      "type": "Feature",
      "geometry": {
        "type": "Point",
        "coordinates": [
          4.9057831,
          44.9338319,
          0
        ]
      },
      "properties": {
        "name": "La Valentinoise",
        "addressLocality": "Valence",
        "postalCode": "26000",
        "streetAddress": "8 Rue Pierre Curie",
        "website": "http://brasserielavalentinoise.fr"
      }
    },
    {
      "type": "Feature",
      "geometry": {
        "type": "Point",
        "coordinates": [
          4.8857907,
          44.8952409,
          0
        ]
      },
      "properties": {
        "name": "Les Zythonautes",
        "addressLocality": "Valence",
        "postalCode": "26000",
        "streetAddress": "35 Allée Ducretet",
        "website": "https://m.facebook.com/pages/category/Brewery/Les-Zythonautes-416423465860505/"
      }
    },
    {
      "type": "Feature",
      "geometry": {
        "type": "Point",
        "coordinates": [
          4.7450818,
          44.5329386,
          0
        ]
      },
      "properties": {
        "name": "La FABrique - Brasserie Artisanale & Bar",
        "addressLocality": "Montélimar",
        "postalCode": "26200",
        "streetAddress": "Face Truffaut, 206 Route de Marseille"
      }
    },
    {
      "type": "Feature",
      "geometry": {
        "type": "Point",
        "coordinates": [
          4.733801,
          44.9458791,
          0
        ]
      },
      "properties": {
        "name": "Haarddrech",
        "addressLocality": "Alboussière",
        "postalCode": "07440",
        "streetAddress": "La Chalaye",
        "website": "https://www.facebook.com/Brasserie-Haarddr%C3%ABch-1112957252095037/"
      }
    },
    {
      "type": "Feature",
      "geometry": {
        "type": "Point",
        "coordinates": [
          5.4131016,
          44.9712217,
          0
        ]
      },
      "properties": {
        "name": "La Slalom",
        "addressLocality": "La Chapelle-en-Vercors",
        "postalCode": "26420",
        "streetAddress": "Avenue des Sources",
        "website": "https://www.brasserie-du-slalom.fr"
      }
    }
  ]
}
